{"type":"FeatureCollection","features":[{"type":"Feature","properties":{"STATE":1,"NAME":"Alabama","POPESTIMATE2023":5108468},"geometry":{"type":"Point","coordinates":[-86.79113,32.806671]}},{"type":"Feature","properties":{"STATE":2,"NAME":"Alaska","POPESTIMATE2023":733406},"geometry":{"type":"Point","coordinates":[-152.404419,61.370716]}},{"type":"Feature","properties":{"STATE":3,"NAME":"Arizona","POPESTIMATE2023":7431344},"geometry":{"type":"Point","coordinates":[-111.431221,33.729759]}},{"type":"Feature","properties":{"STATE":4,"NAME":"Arkansas","POPESTIMATE2023":3067732},"geometry":{"type":"Point","coordinates":[-92.373123,34.969704]}},{"type":"Feature","properties":{"STATE":5,"NAME":"California","POPESTIMATE2023":38965193},"geometry":{"type":"Point","coordinates":[-119.681564,36.116203]}},{"type":"Feature","properties":{"STATE":6,"NAME":"Colorado","POPESTIMATE2023":5877610},"geometry":{"type":"Point","coordinates":[-105.311104,39.059811]}},{"type":"Feature","properties":{"STATE":7,"NAME":"Connecticut","POPESTIMATE2023":3617176},"geometry":{"type":"Point","coordinates":[-72.755371,41.597782]}},{"type":"Feature","properties":{"STATE":8,"NAME":"Delaware","POPESTIMATE2023":1031890},"geometry":{"type":"Point","coordinates":[-75.507141,39.318523]}},{"type":"Feature","properties":{"STATE":9,"NAME":"Florida","POPESTIMATE2023":22610726},"geometry":{"type":"Point","coordinates":[-81.686783,27.766279]}},{"type":"Feature","properties":{"STATE":10,"NAME":"Georgia","POPESTIMATE2023":11029227},"geometry":{"type":"Point","coordinates":[-83.643074,33.040619]}},{"type":"Feature","properties":{"STATE":11,"NAME":"Hawaii","POPESTIMATE2023":1435138},"geometry":{"type":"Point","coordinates":[-157.498337,21.094318]}},{"type":"Feature","properties":{"STATE":12,"NAME":"Idaho","POPESTIMATE2023":1964726},"geometry":{"type":"Point","coordinates":[-114.478828,44.240459]}},{"type":"Feature","properties":{"STATE":13,"NAME":"Illinois","POPESTIMATE2023":12549689},"geometry":{"type":"Point","coordinates":[-88.986137,40.349457]}},{"type":"Feature","properties":{"STATE":14,"NAME":"Indiana","POPESTIMATE2023":6862199},"geometry":{"type":"Point","coordinates":[-86.258278,39.849426]}},{"type":"Feature","properties":{"STATE":15,"NAME":"Iowa","POPESTIMATE2023":3207004},"geometry":{"type":"Point","coordinates":[-93.210526,42.011539]}},{"type":"Feature","properties":{"STATE":16,"NAME":"Kansas","POPESTIMATE2023":2940546},"geometry":{"type":"Point","coordinates":[-96.726486,38.5266]}},{"type":"Feature","properties":{"STATE":17,"NAME":"Kentucky","POPESTIMATE2023":4526154},"geometry":{"type":"Point","coordinates":[-84.670067,37.66814]}},{"type":"Feature","properties":{"STATE":18,"NAME":"Louisiana","POPESTIMATE2023":4573749},"geometry":{"type":"Point","coordinates":[-91.867805,31.169546]}},{"type":"Feature","properties":{"STATE":19,"NAME":"Maine","POPESTIMATE2023":1395722},"geometry":{"type":"Point","coordinates":[-69.381927,44.693947]}},{"type":"Feature","properties":{"STATE":20,"NAME":"Maryland","POPESTIMATE2023":6180253},"geometry":{"type":"Point","coordinates":[-76.802101,39.063946]}},{"type":"Feature","properties":{"STATE":21,"NAME":"Massachusetts","POPESTIMATE2023":7001399},"geometry":{"type":"Point","coordinates":[-71.530106,42.230171]}},{"type":"Feature","properties":{"STATE":22,"NAME":"Michigan","POPESTIMATE2023":10037261},"geometry":{"type":"Point","coordinates":[-84.536095,43.326618]}},{"type":"Feature","properties":{"STATE":23,"NAME":"Minnesota","POPESTIMATE2023":5737915},"geometry":{"type":"Point","coordinates":[-93.900192,45.694454]}},{"type":"Feature","properties":{"STATE":24,"NAME":"Mississippi","POPESTIMATE2023":2939690},"geometry":{"type":"Point","coordinates":[-89.678696,32.741646]}},{"type":"Feature","properties":{"STATE":25,"NAME":"Missouri","POPESTIMATE2023":6196156},"geometry":{"type":"Point","coordinates":[-92.288368,38.456085]}},{"type":"Feature","properties":{"STATE":26,"NAME":"Montana","POPESTIMATE2023":1132812},"geometry":{"type":"Point","coordinates":[-110.454353,46.921925]}},{"type":"Feature","properties":{"STATE":27,"NAME":"Nebraska","POPESTIMATE2023":1978379},"geometry":{"type":"Point","coordinates":[-98.268082,41.12537]}},{"type":"Feature","properties":{"STATE":28,"NAME":"Nevada","POPESTIMATE2023":3194176},"geometry":{"type":"Point","coordinates":[-117.055374,38.313515]}},{"type":"Feature","properties":{"STATE":29,"NAME":"New Hampshire","POPESTIMATE2023":1402054},"geometry":{"type":"Point","coordinates":[-71.563896,43.452492]}},{"type":"Feature","properties":{"STATE":30,"NAME":"New Jersey","POPESTIMATE2023":9290841},"geometry":{"type":"Point","coordinates":[-74.521011,40.298904]}},{"type":"Feature","properties":{"STATE":31,"NAME":"New Mexico","POPESTIMATE2023":2114371},"geometry":{"type":"Point","coordinates":[-106.248482,34.840515]}},{"type":"Feature","properties":{"STATE":32,"NAME":"New York","POPESTIMATE2023":19571216},"geometry":{"type":"Point","coordinates":[-74.948051,42.165726]}},{"type":"Feature","properties":{"STATE":33,"NAME":"North Carolina","POPESTIMATE2023":10835491},"geometry":{"type":"Point","coordinates":[-79.806419,35.630066]}},{"type":"Feature","properties":{"STATE":34,"NAME":"North Dakota","POPESTIMATE2023":783926},"geometry":{"type":"Point","coordinates":[-99.784012,47.528912]}},{"type":"Feature","properties":{"STATE":35,"NAME":"Ohio","POPESTIMATE2023":11785935},"geometry":{"type":"Point","coordinates":[-82.764915,40.388783]}},{"type":"Feature","properties":{"STATE":36,"NAME":"Oklahoma","POPESTIMATE2023":4053824},"geometry":{"type":"Point","coordinates":[-96.928917,35.565342]}},{"type":"Feature","properties":{"STATE":37,"NAME":"Oregon","POPESTIMATE2023":4233358},"geometry":{"type":"Point","coordinates":[-122.070938,44.572021]}},{"type":"Feature","properties":{"STATE":38,"NAME":"Pennsylvania","POPESTIMATE2023":12961683},"geometry":{"type":"Point","coordinates":[-77.209755,40.590752]}},{"type":"Feature","properties":{"STATE":39,"NAME":"Rhode Island","POPESTIMATE2023":1095962},"geometry":{"type":"Point","coordinates":[-71.51178,41.680893]}},{"type":"Feature","properties":{"STATE":40,"NAME":"South Carolina","POPESTIMATE2023":5373555},"geometry":{"type":"Point","coordinates":[-80.945007,33.856892]}},{"type":"Feature","properties":{"STATE":41,"NAME":"South Dakota","POPESTIMATE2023":919318},"geometry":{"type":"Point","coordinates":[-99.438828,44.299782]}},{"type":"Feature","properties":{"STATE":42,"NAME":"Tennessee","POPESTIMATE2023":7126489},"geometry":{"type":"Point","coordinates":[-86.692345,35.747845]}},{"type":"Feature","properties":{"STATE":43,"NAME":"Texas","POPESTIMATE2023":30503301},"geometry":{"type":"Point","coordinates":[-97.563461,31.054487]}},{"type":"Feature","properties":{"STATE":44,"NAME":"Utah","POPESTIMATE2023":3417734},"geometry":{"type":"Point","coordinates":[-111.862434,40.150032]}},{"type":"Feature","properties":{"STATE":45,"NAME":"Vermont","POPESTIMATE2023":647464},"geometry":{"type":"Point","coordinates":[-72.710686,44.045876]}},{"type":"Feature","properties":{"STATE":46,"NAME":"Virginia","POPESTIMATE2023":8715698},"geometry":{"type":"Point","coordinates":[-78.169968,37.769337]}},{"type":"Feature","properties":{"STATE":47,"NAME":"Washington","POPESTIMATE2023":7812880},"geometry":{"type":"Point","coordinates":[-121.490494,47.400902]}},{"type":"Feature","properties":{"STATE":48,"NAME":"West Virginia","POPESTIMATE2023":1770071},"geometry":{"type":"Point","coordinates":[-80.954453,38.491226]}},{"type":"Feature","properties":{"STATE":49,"NAME":"Wisconsin","POPESTIMATE2023":5910955},"geometry":{"type":"Point","coordinates":[-89.616508,44.268543]}},{"type":"Feature","properties":{"STATE":50,"NAME":"Wyoming","POPESTIMATE2023":584057},"geometry":{"type":"Point","coordinates":[-107.30249,42.755966]}}]}